{"type": "FeatureCollection", "features": [{"type": "Feature", "properties": {"name": "OST"}, "geometry": {"type": "Point", "coordinates": [12.237528, 41.803778]}}, {"type": "Feature", "properties": {"name": "TIMOV"}, "geometry": {"type": "Point", "coordinates": [11.899167, 42.493611]}}, {"type": "Feature", "properties": {"name": "NUKNI"}, "geometry": {"type": "Point", "coordinates": [11.556944, 43.803611]}}, {"type": "Feature", "properties": {"name": "BIKTU"}, "geometry": {"type": "Point", "coordinates": [11.539167, 44.002222]}}, {"type": "Feature", "properties": {"name": "OGAPU"}, "geometry": {"type": "Point", "coordinates": [11.553889, 44.158333]}}, {"type": "Feature", "properties": {"name": "PIGAK"}, "geometry": {"type": "Point", "coordinates": [11.508056, 44.386389]}}, {"type": "Feature", "properties": {"name": "DIRAB"}, "geometry": {"type": "Point", "coordinates": [11.062317, 46.813717]}}, {"type": "Feature", "properties": {"name": "UNIMI"}, "geometry": {"type": "Point", "coordinates": [11.065189, 46.860775]}}, {"type": "Feature", "properties": {"name": "SUDUX"}, "geometry": {"type": "Point", "coordinates": [11.008681, 46.945014]}}, {"type": "Feature", "properties": {"name": "HAREM"}, "geometry": {"type": "Point", "coordinates": [9.414564, 49.618442]}}, {"type": "Feature", "properties": {"name": "ETOLU"}, "geometry": {"type": "Point", "coordinates": [9.288611, 50.181111]}}, {"type": "Feature", "properties": {"name": "TEKTU"}, "geometry": {"type": "Point", "coordinates": [9.136389, 50.342778]}}, {"type": "Feature", "properties": {"name": "SOGMI"}, "geometry": {"type": "Point", "coordinates": [8.899167, 50.5275]}}, {"type": "Feature", "properties": {"name": "ARPEG"}, "geometry": {"type": "Point", "coordinates": [8.306339, 51.016592]}}, {"type": "Feature", "properties": {"name": "BADGO"}, "geometry": {"type": "Point", "coordinates": [8.235556, 51.096111]}}, {"type": "Feature", "properties": {"name": "BAMSU"}, "geometry": {"type": "Point", "coordinates": [7.309006, 51.188775]}}, {"type": "Feature", "properties": {"name": "BIKMU"}, "geometry": {"type": "Point", "coordinates": [6.672644, 51.105667]}}, {"type": "Feature", "properties": {"name": "NEREL"}, "geometry": {"type": "Point", "coordinates": [6.563056, 51.0875]}}]}