{"type": "FeatureCollection", "features": [{"type": "Feature", "properties": {"name": "OTSID"}, "geometry": {"type": "Point", "coordinates": [-0.230833, 51.173056]}}, {"type": "Feature", "properties": {"name": "DIKVU"}, "geometry": {"type": "Point", "coordinates": [0.317222, 51.296389]}}, {"type": "Feature", "properties": {"name": "ITVIP"}, "geometry": {"type": "Point", "coordinates": [1.053333, 51.287222]}}, {"type": "Feature", "properties": {"name": "KONAN"}, "geometry": {"type": "Point", "coordinates": [2.0, 51.130764]}}, {"type": "Feature", "properties": {"name": "DENOX"}, "geometry": {"type": "Point", "coordinates": [4.027778, 50.879444]}}, {"type": "Feature", "properties": {"name": "LERVO"}, "geometry": {"type": "Point", "coordinates": [4.158611, 50.833056]}}, {"type": "Feature", "properties": {"name": "HUL"}, "geometry": {"type": "Point", "coordinates": [4.641667, 50.749444]}}, {"type": "Feature", "properties": {"name": "GILOM"}, "geometry": {"type": "Point", "coordinates": [4.774111, 50.752028]}}, {"type": "Feature", "properties": {"name": "MANUV"}, "geometry": {"type": "Point", "coordinates": [7.458889, 50.295556]}}, {"type": "Feature", "properties": {"name": "ASKIK"}, "geometry": {"type": "Point", "coordinates": [8.533611, 50.052778]}}, {"type": "Feature", "properties": {"name": "FFM"}, "geometry": {"type": "Point", "coordinates": [8.637092, 50.053742]}}, {"type": "Feature", "properties": {"name": "BOMBI"}, "geometry": {"type": "Point", "coordinates": [8.800278, 50.056667]}}, {"type": "Feature", "properties": {"name": "PSA"}, "geometry": {"type": "Point", "coordinates": [9.348325, 49.862242]}}, {"type": "Feature", "properties": {"name": "LEPSA"}, "geometry": {"type": "Point", "coordinates": [9.590611, 49.822881]}}, {"type": "Feature", "properties": {"name": "AMOSA"}, "geometry": {"type": "Point", "coordinates": [10.811389, 49.509444]}}, {"type": "Feature", "properties": {"name": "RDG"}, "geometry": {"type": "Point", "coordinates": [12.526547, 49.040269]}}, {"type": "Feature", "properties": {"name": "LAMSI"}, "geometry": {"type": "Point", "coordinates": [13.583333, 48.653333]}}, {"type": "Feature", "properties": {"name": "INVED"}, "geometry": {"type": "Point", "coordinates": [20.401389, 46.157778]}}, {"type": "Feature", "properties": {"name": "PADGU"}, "geometry": {"type": "Point", "coordinates": [22.610556, 44.778611]}}, {"type": "Feature", "properties": {"name": "OVDOT"}, "geometry": {"type": "Point", "coordinates": [22.976944, 44.538889]}}, {"type": "Feature", "properties": {"name": "NULGO"}, "geometry": {"type": "Point", "coordinates": [23.717222, 44.045]}}, {"type": "Feature", "properties": {"name": "TIMUR"}, "geometry": {"type": "Point", "coordinates": [24.239167, 43.688889]}}, {"type": "Feature", "properties": {"name": "XANEX"}, "geometry": {"type": "Point", "coordinates": [24.980278, 43.127222]}}, {"type": "Feature", "properties": {"name": "GASRU"}, "geometry": {"type": "Point", "coordinates": [26.099444, 42.251111]}}, {"type": "Feature", "properties": {"name": "RILEX"}, "geometry": {"type": "Point", "coordinates": [26.766389, 41.971111]}}]}